transforms: 
  - 
    header: 
      seq: 0
      stamp: 
        secs: 1548200369
        nsecs: 265273772
      frame_id: "odom"
    child_frame_id: "base_footprint"
    transform: 
      translation: 
        x: 0.00132202960031
        y: -7.07089575815e-07
        z: 0.0
      rotation: 
        x: 0.0
        y: 0.0
        z: 0.00349065141522
        w: 0.999993907658
---
transforms: 
  - 
    header: 
      seq: 0
      stamp: 
        secs: 1548200369
        nsecs: 323164544
      frame_id: "odom"
    child_frame_id: "base_footprint"
    transform: 
      translation: 
        x: 0.00132202960031
        y: -7.07089575815e-07
        z: 0.0
      rotation: 
        x: 0.0
        y: 0.0
        z: 0.00366518322306
        w: 0.999993283193
---
transforms: 
  - 
    header: 
      seq: 0
      stamp: 
        secs: 1548200369
        nsecs: 345085809
      frame_id: "odom"
    child_frame_id: "base_footprint"
    transform: 
      translation: 
        x: 0.00132202960031
        y: -7.07089575815e-07
        z: 0.0
      rotation: 
        x: 0.0
        y: 0.0
        z: 0.00375244908544
        w: 0.999992959538
---
transforms: 
  - 
    header: 
      seq: 0
      stamp: 
        secs: 1548200369
        nsecs: 402994530
      frame_id: "odom"
    child_frame_id: "base_footprint"
    transform: 
      translation: 
        x: 0.00132202960031
        y: -7.07089575815e-07
        z: 0.0
      rotation: 
        x: 0.0
        y: 0.0
        z: 0.00331611950106
        w: 0.999994501661
---
transforms: 
  - 
    header: 
      seq: 0
      stamp: 
        secs: 1548200369
        nsecs: 403271317
      frame_id: "base_link"
    child_frame_id: "wheel_left_link"
    transform: 
      translation: 
        x: 0.0
        y: 0.115
        z: 0.025
      rotation: 
        x: -0.707102057092
        y: 0.00258473484569
        z: 0.0025847348457
        w: 0.707102057095
  - 
    header: 
      seq: 0
      stamp: 
        secs: 1548200369
        nsecs: 403271317
      frame_id: "base_link"
    child_frame_id: "wheel_right_link"
    transform: 
      translation: 
        x: 0.0
        y: -0.115
        z: 0.025
      rotation: 
        x: -0.706695299642
        y: 0.0241195659526
        z: 0.0241195659527
        w: 0.706695299645
---
transforms: 
  - 
    header: 
      seq: 0
      stamp: 
        secs: 1548200369
        nsecs: 424959796
      frame_id: "odom"
    child_frame_id: "base_footprint"
    transform: 
      translation: 
        x: 0.00132202960031
        y: -7.07089575815e-07
        z: 0.0
      rotation: 
        x: 0.0
        y: 0.0
        z: 0.00322885350576
        w: 0.999994787239
---
transforms: 
  - 
    header: 
      seq: 0
      stamp: 
        secs: 1548200369
        nsecs: 484886693
      frame_id: "odom"
    child_frame_id: "base_footprint"
    transform: 
      translation: 
        x: 0.00132202960031
        y: -7.07089575815e-07
        z: 0.0
      rotation: 
        x: 0.0
        y: 0.0
        z: 0.00322885350576
        w: 0.999994787239
---
transforms: 
  - 
    header: 
      seq: 0
      stamp: 
        secs: 1548200369
        nsecs: 544772663
      frame_id: "odom"
    child_frame_id: "base_footprint"
    transform: 
      translation: 
        x: 0.00132202960031
        y: -7.07089575815e-07
        z: 0.0
      rotation: 
        x: 0.0
        y: 0.0
        z: 0.00314158748588
        w: 0.999995065202
---
transforms: 
  - 
    header: 
      seq: 0
      stamp: 
        secs: 1548200369
        nsecs: 603595625
      frame_id: "odom"
    child_frame_id: "base_footprint"
    transform: 
      translation: 
        x: 0.00132202960031
        y: -7.07089575815e-07
        z: 0.0
      rotation: 
        x: 0.0
        y: 0.0
        z: 0.00305432144207
        w: 0.999995335549
---
transforms: 
  - 
    header: 
      seq: 0
      stamp: 
        secs: 1548200369
        nsecs: 603903981
      frame_id: "base_link"
    child_frame_id: "wheel_left_link"
    transform: 
      translation: 
        x: 0.0
        y: 0.115
        z: 0.025
      rotation: 
        x: -0.707102057092
        y: 0.00258473484569
        z: 0.0025847348457
        w: 0.707102057095
  - 
    header: 
      seq: 0
      stamp: 
        secs: 1548200369
        nsecs: 603903981
      frame_id: "base_link"
    child_frame_id: "wheel_right_link"
    transform: 
      translation: 
        x: 0.0
        y: -0.115
        z: 0.025
      rotation: 
        x: -0.706695299642
        y: 0.0241195659526
        z: 0.0241195659527
        w: 0.706695299645
---
transforms: 
  - 
    header: 
      seq: 0
      stamp: 
        secs: 1548200369
        nsecs: 624579112
      frame_id: "odom"
    child_frame_id: "base_footprint"
    transform: 
      translation: 
        x: 0.00132202960031
        y: -7.07089575815e-07
        z: 0.0
      rotation: 
        x: 0.0
        y: 0.0
        z: 0.00305432144207
        w: 0.999995335549
---
transforms: 
  - 
    header: 
      seq: 0
      stamp: 
        secs: 1548200369
        nsecs: 684506917
      frame_id: "odom"
    child_frame_id: "base_footprint"
    transform: 
      translation: 
        x: 0.00132202960031
        y: -7.07089575815e-07
        z: 0.0
      rotation: 
        x: 0.0
        y: 0.0
        z: 0.00305432144207
        w: 0.999995335549
---
transforms: 
  - 
    header: 
      seq: 0
      stamp: 
        secs: 1548200369
        nsecs: 743406847
      frame_id: "odom"
    child_frame_id: "base_footprint"
    transform: 
      translation: 
        x: 0.00132202960031
        y: -7.07089575815e-07
        z: 0.0
      rotation: 
        x: 0.0
        y: 0.0
        z: 0.00305432144207
        w: 0.999995335549
---
transforms: 
  - 
    header: 
      seq: 0
      stamp: 
        secs: 1548200369
        nsecs: 801130205
      frame_id: "odom"
    child_frame_id: "base_footprint"
    transform: 
      translation: 
        x: 0.00132202960031
        y: -7.07089575815e-07
        z: 0.0
      rotation: 
        x: 0.0
        y: 0.0
        z: 0.0034033854711
        w: 0.999994208467
---
transforms: 
  - 
    header: 
      seq: 0
      stamp: 
        secs: 1548200369
        nsecs: 823301368
      frame_id: "odom"
    child_frame_id: "base_footprint"
    transform: 
      translation: 
        x: 0.00132202960031
        y: -7.07089575815e-07
        z: 0.0
      rotation: 
        x: 0.0
        y: 0.0
        z: 0.00357791733276
        w: 0.999993599233
---
transforms: 
  - 
    header: 
      seq: 0
      stamp: 
        secs: 1548200369
        nsecs: 823357731
      frame_id: "base_link"
    child_frame_id: "wheel_left_link"
    transform: 
      translation: 
        x: 0.0
        y: 0.115
        z: 0.025
      rotation: 
        x: -0.707102057092
        y: 0.00258473484569
        z: 0.0025847348457
        w: 0.707102057095
  - 
    header: 
      seq: 0
      stamp: 
        secs: 1548200369
        nsecs: 823357731
      frame_id: "base_link"
    child_frame_id: "wheel_right_link"
    transform: 
      translation: 
        x: 0.0
        y: -0.115
        z: 0.025
      rotation: 
        x: -0.706695299642
        y: 0.0241195659526
        z: 0.0241195659527
        w: 0.706695299645
---
transforms: 
  - 
    header: 
      seq: 0
      stamp: 
        secs: 1548200369
        nsecs: 883200467
      frame_id: "odom"
    child_frame_id: "base_footprint"
    transform: 
      translation: 
        x: 0.00132202960031
        y: -7.07089575815e-07
        z: 0.0
      rotation: 
        x: 0.0
        y: 0.0
        z: 0.00366518322306
        w: 0.999993283193
---
transforms: 
  - 
    header: 
      seq: 0
      stamp: 
        secs: 1548200369
        nsecs: 943159213
      frame_id: "odom"
    child_frame_id: "base_footprint"
    transform: 
      translation: 
        x: 0.00132202960031
        y: -7.07089575815e-07
        z: 0.0
      rotation: 
        x: 0.0
        y: 0.0
        z: 0.00366518322306
        w: 0.999993283193
---
transforms: 
  - 
    header: 
      seq: 0
      stamp: 
        secs: 1548200370
        nsecs:   3069557
      frame_id: "odom"
    child_frame_id: "base_footprint"
    transform: 
      translation: 
        x: 0.00132202960031
        y: -7.07089575815e-07
        z: 0.0
      rotation: 
        x: 0.0
        y: 0.0
        z: 0.00366518322306
        w: 0.999993283193
---
transforms: 
  - 
    header: 
      seq: 0
      stamp: 
        secs: 1548200370
        nsecs:  61855853
      frame_id: "odom"
    child_frame_id: "base_footprint"
    transform: 
      translation: 
        x: 0.00132202960031
        y: -7.07089575815e-07
        z: 0.0
      rotation: 
        x: 0.0
        y: 0.0
        z: 0.00366518322306
        w: 0.999993283193
---
transforms: 
  - 
    header: 
      seq: 0
      stamp: 
        secs: 1548200370
        nsecs:  61915289
      frame_id: "base_link"
    child_frame_id: "wheel_left_link"
    transform: 
      translation: 
        x: 0.0
        y: 0.115
        z: 0.025
      rotation: 
        x: -0.707102057092
        y: 0.00258473484569
        z: 0.0025847348457
        w: 0.707102057095
  - 
    header: 
      seq: 0
      stamp: 
        secs: 1548200370
        nsecs:  61915289
      frame_id: "base_link"
    child_frame_id: "wheel_right_link"
    transform: 
      translation: 
        x: 0.0
        y: -0.115
        z: 0.025
      rotation: 
        x: -0.706695299642
        y: 0.0241195659526
        z: 0.0241195659527
        w: 0.706695299645
---
transforms: 
  - 
    header: 
      seq: 0
      stamp: 
        secs: 1548200370
        nsecs:  82698117
      frame_id: "odom"
    child_frame_id: "base_footprint"
    transform: 
      translation: 
        x: 0.00132202960031
        y: -7.07089575815e-07
        z: 0.0
      rotation: 
        x: 0.0
        y: 0.0
        z: 0.00366518322306
        w: 0.999993283193
---
transforms: 
  - 
    header: 
      seq: 0
      stamp: 
        secs: 1548200370
        nsecs: 141678645
      frame_id: "odom"
    child_frame_id: "base_footprint"
    transform: 
      translation: 
        x: 0.00132202960031
        y: -7.07089575815e-07
        z: 0.0
      rotation: 
        x: 0.0
        y: 0.0
        z: 0.00366518322306
        w: 0.999993283193
---
transforms: 
  - 
    header: 
      seq: 0
      stamp: 
        secs: 1548200370
        nsecs: 201566570
      frame_id: "odom"
    child_frame_id: "base_footprint"
    transform: 
      translation: 
        x: 0.00132202960031
        y: -7.07089575815e-07
        z: 0.0
      rotation: 
        x: 0.0
        y: 0.0
        z: 0.00366518322306
        w: 0.999993283193
---
transforms: 
  - 
    header: 
      seq: 0
      stamp: 
        secs: 1548200370
        nsecs: 259294608
      frame_id: "odom"
    child_frame_id: "base_footprint"
    transform: 
      translation: 
        x: 0.00132202960031
        y: -7.07089575815e-07
        z: 0.0
      rotation: 
        x: 0.0
        y: 0.0
        z: 0.00366518322306
        w: 0.999993283193
---
transforms: 
  - 
    header: 
      seq: 0
      stamp: 
        secs: 1548200370
        nsecs: 281482393
      frame_id: "odom"
    child_frame_id: "base_footprint"
    transform: 
      translation: 
        x: 0.00132202960031
        y: -7.07089575815e-07
        z: 0.0
      rotation: 
        x: 0.0
        y: 0.0
        z: 0.00366518322306
        w: 0.999993283193
---
transforms: 
  - 
    header: 
      seq: 0
      stamp: 
        secs: 1548200370
        nsecs: 281813797
      frame_id: "base_link"
    child_frame_id: "wheel_left_link"
    transform: 
      translation: 
        x: 0.0
        y: 0.115
        z: 0.025
      rotation: 
        x: -0.707102057092
        y: 0.00258473484569
        z: 0.0025847348457
        w: 0.707102057095
  - 
    header: 
      seq: 0
      stamp: 
        secs: 1548200370
        nsecs: 281813797
      frame_id: "base_link"
    child_frame_id: "wheel_right_link"
    transform: 
      translation: 
        x: 0.0
        y: -0.115
        z: 0.025
      rotation: 
        x: -0.706695299642
        y: 0.0241195659526
        z: 0.0241195659527
        w: 0.706695299645
---
transforms: 
  - 
    header: 
      seq: 0
      stamp: 
        secs: 1548200370
        nsecs: 341282107
      frame_id: "odom"
    child_frame_id: "base_footprint"
    transform: 
      translation: 
        x: 0.00132202960031
        y: -7.07089575815e-07
        z: 0.0
      rotation: 
        x: 0.0
        y: 0.0
        z: 0.00366518322306
        w: 0.999993283193
---
transforms: 
  - 
    header: 
      seq: 0
      stamp: 
        secs: 1548200370
        nsecs: 401057306
      frame_id: "odom"
    child_frame_id: "base_footprint"
    transform: 
      translation: 
        x: 0.00132202960031
        y: -7.07089575815e-07
        z: 0.0
      rotation: 
        x: 0.0
        y: 0.0
        z: 0.00366518322306
        w: 0.999993283193
---
transforms: 
  - 
    header: 
      seq: 0
      stamp: 
        secs: 1548200370
        nsecs: 461138695
      frame_id: "odom"
    child_frame_id: "base_footprint"
    transform: 
      translation: 
        x: 0.00132202960031
        y: -7.07089575815e-07
        z: 0.0
      rotation: 
        x: 0.0
        y: 0.0
        z: 0.00366518322306
        w: 0.999993283193
---
transforms: 
  - 
    header: 
      seq: 0
      stamp: 
        secs: 1548200370
        nsecs: 519948667
      frame_id: "odom"
    child_frame_id: "base_footprint"
    transform: 
      translation: 
        x: 0.00132202960031
        y: -7.07089575815e-07
        z: 0.0
      rotation: 
        x: 0.0
        y: 0.0
        z: 0.00366518322306
        w: 0.999993283193
---
transforms: 
  - 
    header: 
      seq: 0
      stamp: 
        secs: 1548200370
        nsecs: 520001119
      frame_id: "base_link"
    child_frame_id: "wheel_left_link"
    transform: 
      translation: 
        x: 0.0
        y: 0.115
        z: 0.025
      rotation: 
        x: -0.707102057092
        y: 0.00258473484569
        z: 0.0025847348457
        w: 0.707102057095
  - 
    header: 
      seq: 0
      stamp: 
        secs: 1548200370
        nsecs: 520001119
      frame_id: "base_link"
    child_frame_id: "wheel_right_link"
    transform: 
      translation: 
        x: 0.0
        y: -0.115
        z: 0.025
      rotation: 
        x: -0.706695299642
        y: 0.0241195659526
        z: 0.0241195659527
        w: 0.706695299645
---
transforms: 
  - 
    header: 
      seq: 0
      stamp: 
        secs: 1548200370
        nsecs: 577850265
      frame_id: "odom"
    child_frame_id: "base_footprint"
    transform: 
      translation: 
        x: 0.00132202960031
        y: -7.07089575815e-07
        z: 0.0
      rotation: 
        x: 0.0
        y: 0.0
        z: 0.00366518322306
        w: 0.999993283193
---
transforms: 
  - 
    header: 
      seq: 0
      stamp: 
        secs: 1548200370
        nsecs: 599891589
      frame_id: "odom"
    child_frame_id: "base_footprint"
    transform: 
      translation: 
        x: 0.00132202960031
        y: -7.07089575815e-07
        z: 0.0
      rotation: 
        x: 0.0
        y: 0.0
        z: 0.00366518322306
        w: 0.999993283193
---
transforms: 
  - 
    header: 
      seq: 0
      stamp: 
        secs: 1548200370
        nsecs: 659817788
      frame_id: "odom"
    child_frame_id: "base_footprint"
    transform: 
      translation: 
        x: 0.00132202960031
        y: -7.07089575815e-07
        z: 0.0
      rotation: 
        x: 0.0
        y: 0.0
        z: 0.00366518322306
        w: 0.999993283193
---
transforms: 
  - 
    header: 
      seq: 0
      stamp: 
        secs: 1548200370
        nsecs: 717588919
      frame_id: "odom"
    child_frame_id: "base_footprint"
    transform: 
      translation: 
        x: 0.00132202960031
        y: -7.07089575815e-07
        z: 0.0
      rotation: 
        x: 0.0
        y: 0.0
        z: 0.00366518322306
        w: 0.999993283193
---
transforms: 
  - 
    header: 
      seq: 0
      stamp: 
        secs: 1548200370
        nsecs: 739488324
      frame_id: "odom"
    child_frame_id: "base_footprint"
    transform: 
      translation: 
        x: 0.00132202960031
        y: -7.07089575815e-07
        z: 0.0
      rotation: 
        x: 0.0
        y: 0.0
        z: 0.00366518322306
        w: 0.999993283193
---
transforms: 
  - 
    header: 
      seq: 0
      stamp: 
        secs: 1548200370
        nsecs: 739534560
      frame_id: "base_link"
    child_frame_id: "wheel_left_link"
    transform: 
      translation: 
        x: 0.0
        y: 0.115
        z: 0.025
      rotation: 
        x: -0.707102057092
        y: 0.00258473484569
        z: 0.0025847348457
        w: 0.707102057095
  - 
    header: 
      seq: 0
      stamp: 
        secs: 1548200370
        nsecs: 739534560
      frame_id: "base_link"
    child_frame_id: "wheel_right_link"
    transform: 
      translation: 
        x: 0.0
        y: -0.115
        z: 0.025
      rotation: 
        x: -0.706695299642
        y: 0.0241195659526
        z: 0.0241195659527
        w: 0.706695299645
---
